[
  {
    "id": 1,
    "jenis": "Penyuling",
    "name": "Penyuling Akar Wangi Samarang Jaya",
    "owner": "H. Dedi Supriyadi",
    "address": "Jl. Raya Samarang No. 45, Desa Sukamaju",
    "district": "Samarang",
    "subDistrict": "Sukamaju",
    "village": "Sukamaju",
    "phone": "0262-2345678",
    "whatsapp": "081234567890",
    "email": "samarangjaya@email.com",
    "capacity": "500 kg/hari",
    "products": ["Minyak Akar Wangi", "Minyak Serai Wangi"],
    "certification": ["BPOM", "SNI"],
    "operatingHours": "06:00 - 18:00",
    "establishedYear": 2015,
    "rating": 4.5,
    "latitude": -7.2145,
    "longitude": 107.8956,
    "status": "Aktif",
    "pricePerKg": 3100000,
    "minOrder": 1,
    "paymentMethods": ["Tunai", "Transfer Bank", "COD"],
    "deliveryRadius": "50 km",
    "website": null,
    "socialMedia": {
      "instagram": "@samarangjaya",
      "facebook": null,
      "tiktok": null
    },
    "facilities": ["Parkir", "Ruang Tunggu", "Toilet"],
    "languages": ["Bahasa Indonesia", "Bahasa Sunda"],
    "description": "Unit penyuling terbesar di Kecamatan Samarang dengan teknologi steam distillation modern",
    "images": [
      "assets/images/distiller_1_1.jpg",
      "assets/images/distiller_1_2.jpg"
    ],
    "lastUpdated": "2024-01-15T10:30:00Z"
  },
  {
    "id": 2,
    "jenis": "Penyuling",
    "name": "CV. Pasir Wangi Distillery",
    "owner": "Asep Kurnia",
    "address": "Desa Pasirwangi, RT 03/RW 02",
    "district": "Pasirwangi",
    "subDistrict": "Pasirwangi",
    "phone": "0262-2456789",
    "whatsapp": "081345678901",
    "capacity": "300 kg/hari",
    "products": ["Minyak Akar Wangi Premium", "Minyak Nilam"],
    "certification": ["SNI", "Halal MUI"],
    "operatingHours": "07:00 - 17:00",
    "establishedYear": 2012,
    "rating": 4.3,
    "latitude": -7.1892,
    "longitude": 107.9124,
    "status": "Aktif",
    "description": "Spesialis minyak akar wangi berkualitas ekspor dengan sertifikat halal"
  },
  {
    "id": 3,
    "jenis": "Penyuling",
    "name": "Penyuling Tradisional Pak Ujang",
    "owner": "Ujang Sutisna",
    "address": "Kampung Cijulang, Desa Leles",
    "district": "Leles",
    "subDistrict": "Leles",
    "phone": "0262-2567890",
    "whatsapp": "081456789012",
    "capacity": "150 kg/hari",
    "products": ["Minyak Akar Wangi"],
    "certification": ["P-IRT"],
    "operatingHours": "05:00 - 16:00",
    "establishedYear": 2008,
    "rating": 4.1,
    "latitude": -7.2456,
    "longitude": 107.8734,
    "status": "Aktif",
    "description": "Penyuling tradisional dengan metode turun temurun, kualitas stabil"
  },
  {
    "id": 4,
    "jenis": "Penyuling",
    "name": "Bayongbong Essential Oils",
    "owner": "Hj. Siti Nurjanah",
    "address": "Jl. Veteran No. 12, Bayongbong",
    "district": "Bayongbong",
    "subDistrict": "Bayongbong",
    "phone": "0262-2678901",
    "whatsapp": "081567890123",
    "capacity": "400 kg/hari",
    "products": ["Minyak Akar Wangi", "Minyak Kenanga", "Minyak Patchouli"],
    "certification": ["BPOM", "SNI", "ISO 9001"],
    "operatingHours": "06:30 - 18:30",
    "establishedYear": 2010,
    "rating": 4.7,
    "latitude": -7.1678,
    "longitude": 107.8445,
    "status": "Aktif",
    "description": "Unit penyuling modern dengan berbagai varian minyak atsiri"
  },
  {
    "id": 5,
    "jenis": "Penyuling",
    "name": "Cilawu Vetiver Distillery",
    "owner": "Yudi Hermawan",
    "address": "Desa Mekargalih, Kecamatan Cilawu",
    "district": "Cilawu",
    "subDistrict": "Mekargalih",
    "phone": "0262-2789012",
    "whatsapp": "081678901234",
    "capacity": "250 kg/hari",
    "products": ["Minyak Akar Wangi Super", "Minyak Cendana"],
    "certification": ["SNI", "Organic"],
    "operatingHours": "06:00 - 17:00",
    "establishedYear": 2014,
    "rating": 4.2,
    "latitude": -7.3012,
    "longitude": 107.9234,
    "status": "Aktif",
    "description": "Spesialis minyak akar wangi organik untuk pasar ekspor"
  },
  {
    "id": 6,
    "jenis": "Penyuling",
    "name": "Garut Aromatic Center",
    "owner": "Dr. Bambang Wibowo",
    "address": "Jl. Cimanuk No. 88, Tarogong Kidul",
    "district": "Tarogong Kidul",
    "subDistrict": "Sukagalih",
    "phone": "0262-2890123",
    "whatsapp": "081789012345",
    "capacity": "600 kg/hari",
    "products": ["Minyak Akar Wangi", "Minyak Lavender", "Minyak Eucalyptus"],
    "certification": ["BPOM", "SNI", "GMP", "ISO 14001"],
    "operatingHours": "08:00 - 20:00",
    "establishedYear": 2018,
    "rating": 4.8,
    "latitude": -7.2234,
    "longitude": 107.8567,
    "status": "Aktif",
    "description": "Pusat riset dan produksi minyak atsiri modern dengan standar internasional"
  },
  {
    "id": 7,
    "jenis": "Penyuling",
    "name": "Penyuling Mandiri Samarang",
    "owner": "Ade Suryaman",
    "address": "Desa Cintakarya, RT 05/RW 03",
    "district": "Samarang",
    "subDistrict": "Cintakarya",
    "phone": "0262-2901234",
    "whatsapp": "081890123456",
    "capacity": "200 kg/hari",
    "products": ["Minyak Akar Wangi"],
    "certification": ["P-IRT"],
    "operatingHours": "05:30 - 15:30",
    "establishedYear": 2011,
    "rating": 3.9,
    "latitude": -7.2089,
    "longitude": 107.9012,
    "status": "Aktif",
    "description": "Unit penyuling keluarga dengan fokus pada kualitas tradisional"
  },
  {
    "id": 8,
    "jenis": "Penyuling",
    "name": "CV. Wangi Nusantara",
    "owner": "Iwan Setiawan",
    "address": "Jl. Raya Leles KM 15",
    "district": "Leles",
    "subDistrict": "Neglasari",
    "phone": "0262-3012345",
    "whatsapp": "082901234567",
    "capacity": "350 kg/hari",
    "products": ["Minyak Akar Wangi", "Minyak Sereh", "Minyak Jahe"],
    "certification": ["BPOM", "Halal MUI"],
    "operatingHours": "07:00 - 18:00",
    "establishedYear": 2016,
    "rating": 4.4,
    "latitude": -7.2567,
    "longitude": 107.8823,
    "status": "Aktif",
    "description": "Produsen minyak atsiri multi-produk dengan jaringan distribusi luas"
  },
  {
    "id": 9,
    "jenis": "Penyuling",
    "name": "Pasirwangi Heritage Oils",
    "owner": "H. Abdul Gani",
    "address": "Kampung Cijati, Pasirwangi",
    "district": "Pasirwangi",
    "subDistrict": "Cijati",
    "phone": "0262-3123456",
    "whatsapp": "082012345678",
    "capacity": "180 kg/hari",
    "products": ["Minyak Akar Wangi Tradisional"],
    "certification": ["P-IRT", "Halal MUI"],
    "operatingHours": "06:00 - 16:00",
    "establishedYear": 2005,
    "rating": 4.0,
    "latitude": -7.1945,
    "longitude": 107.9178,
    "status": "Aktif",
    "description": "Penyuling tertua di daerah dengan reputasi kualitas konsisten"
  },
  {
    "id": 10,
    "jenis": "Penyuling",
    "name": "Bayongbong Natural Distillery",
    "owner": "Rina Marlina, S.P.",
    "address": "Jl. Sudirman No. 25, Bayongbong",
    "district": "Bayongbong",
    "subDistrict": "Bayongbong",
    "phone": "0262-3234567",
    "whatsapp": "082123456789",
    "capacity": "320 kg/hari",
    "products": ["Minyak Akar Wangi", "Minyak Mawar", "Minyak Melati"],
    "certification": ["SNI", "Organic", "Fair Trade"],
    "operatingHours": "07:30 - 17:30",
    "establishedYear": 2017,
    "rating": 4.6,
    "latitude": -7.1623,
    "longitude": 107.8501,
    "status": "Aktif",
    "description": "Unit penyuling organik dengan sertifikat fair trade untuk pasar Eropa"
  },
  {
    "id": 11,
    "jenis": "Penyuling",
    "name": "Cilawu Agro Distillery",
    "owner": "Drs. Sukmana",
    "address": "Desa Sindangkasih, Cilawu",
    "district": "Cilawu",
    "subDistrict": "Sindangkasih",
    "phone": "0262-3345678",
    "whatsapp": "082234567890",
    "capacity": "280 kg/hari",
    "products": ["Minyak Akar Wangi", "Minyak Mint"],
    "certification": ["BPOM", "SNI"],
    "operatingHours": "06:00 - 18:00",
    "establishedYear": 2013,
    "rating": 4.1,
    "latitude": -7.3089,
    "longitude": 107.9289,
    "status": "Aktif",
    "description": "Unit penyuling dengan konsep agro-industri terintegrasi"
  },
  {
    "id": 12,
    "jenis": "Penyuling",
    "name": "Samarang Prima Oils",
    "owner": "Cecep Hidayat",
    "address": "Desa Sukawangi, Samarang",
    "district": "Samarang",
    "subDistrict": "Sukawangi",
    "phone": "0262-3456789",
    "whatsapp": "082345678901",
    "capacity": "220 kg/hari",
    "products": ["Minyak Akar Wangi Premium"],
    "certification": ["SNI", "Halal MUI"],
    "operatingHours": "05:00 - 17:00",
    "establishedYear": 2009,
    "rating": 4.2,
    "latitude": -7.2178,
    "longitude": 107.8934,
    "status": "Aktif",
    "description": "Spesialis minyak akar wangi premium dengan kualitas ekspor"
  },
  {
    "id": 13,
    "jenis": "Penyuling",
    "name": "Leles Traditional Distillery",
    "owner": "Ny. Tati Suharti",
    "address": "Kampung Cikaret, Leles",
    "district": "Leles",
    "subDistrict": "Cikaret",
    "phone": "0262-3567890",
    "whatsapp": "082456789012",
    "capacity": "160 kg/hari",
    "products": ["Minyak Akar Wangi", "Minyak Kemenyan"],
    "certification": ["P-IRT"],
    "operatingHours": "06:30 - 16:30",
    "establishedYear": 2007,
    "rating": 3.8,
    "latitude": -7.2512,
    "longitude": 107.8756,
    "status": "Aktif",
    "description": "Penyuling keluarga dengan warisan turun temurun"
  },
  {
    "id": 14,
    "jenis": "Penyuling",
    "name": "Garut Essential Hub",
    "owner": "Ir. Jajang Nurjaman, M.T.",
    "address": "Kawasan Industri Garut, Tarogong Kaler",
    "district": "Tarogong Kaler",
    "subDistrict": "Jayaraga",
    "phone": "0262-3678901",
    "whatsapp": "082567890123",
    "capacity": "800 kg/hari",
    "products": ["Minyak Akar Wangi", "Minyak Citronella", "Minyak Lemongrass"],
    "certification": ["BPOM", "SNI", "ISO 9001", "HACCP"],
    "operatingHours": "24 jam",
    "establishedYear": 2020,
    "rating": 4.9,
    "latitude": -7.1956,
    "longitude": 107.8612,
    "status": "Aktif",
    "description": "Pabrik modern terbesar di Garut dengan teknologi Industry 4.0"
  },
  {
    "id": 15,
    "jenis": "Penyuling",
    "name": "Pasirwangi Cooperative Distillery",
    "owner": "Koperasi Tani Maju Bersama",
    "address": "Desa Sukaresmi, Pasirwangi",
    "district": "Pasirwangi",
    "subDistrict": "Sukaresmi",
    "phone": "0262-3789012",
    "whatsapp": "082678901234",
    "capacity": "450 kg/hari",
    "products": ["Minyak Akar Wangi", "Minyak Kayu Manis"],
    "certification": ["SNI", "Koperasi"],
    "operatingHours": "06:00 - 18:00",
    "establishedYear": 2019,
    "rating": 4.3,
    "latitude": -7.1834,
    "longitude": 107.9156,
    "status": "Aktif",
    "description": "Unit penyuling milik koperasi dengan sistem bagi hasil adil"
  },
  {
    "id": 16,
    "jenis": "Penyuling",
    "name": "Bayongbong Artisan Oils",
    "owner": "Dede Firmansyah",
    "address": "Desa Cijagra, Bayongbong",
    "district": "Bayongbong",
    "subDistrict": "Cijagra",
    "phone": "0262-3890123",
    "whatsapp": "082789012345",
    "capacity": "190 kg/hari",
    "products": ["Minyak Akar Wangi Artisan"],
    "certification": ["P-IRT", "Organic"],
    "operatingHours": "07:00 - 17:00",
    "establishedYear": 2021,
    "rating": 4.0,
    "latitude": -7.1701,
    "longitude": 107.8478,
    "status": "Aktif",
    "description": "Unit penyuling artisan dengan fokus pada produk organik berkualitas tinggi"
  },
  {
    "id": 17,
    "jenis": "Penyuling",
    "name": "Cilawu Eco Distillery",
    "owner": "Ahmad Fauzi",
    "address": "Kampung Babakan, Cilawu",
    "district": "Cilawu",
    "subDistrict": "Babakan",
    "phone": "0262-3901234",
    "whatsapp": "082890123456",
    "capacity": "240 kg/hari",
    "products": ["Minyak Akar Wangi", "Minyak Bambu"],
    "certification": ["SNI", "Green Certificate"],
    "operatingHours": "06:00 - 16:00",
    "establishedYear": 2015,
    "rating": 4.4,
    "latitude": -7.3156,
    "longitude": 107.9201,
    "status": "Aktif",
    "description": "Unit penyuling ramah lingkungan dengan teknologi hijau"
  },
  {
    "id": 18,
    "jenis": "Penyuling",
    "name": "Vetiver Valley Distillery",
    "owner": "Sandi Kurniawan",
    "address": "Desa Rancabango, Tarogong Kaler",
    "district": "Tarogong Kaler",
    "subDistrict": "Rancabango",
    "phone": "0262-4012345",
    "whatsapp": "083901234567",
    "capacity": "310 kg/hari",
    "products": ["Minyak Akar Wangi Super Premium"],
    "certification": ["BPOM", "SNI", "Export Quality"],
    "operatingHours": "05:30 - 18:30",
    "establishedYear": 2018,
    "rating": 4.7,
    "latitude": -7.2089,
    "longitude": 107.8734,
    "status": "Aktif",
    "description": "Spesialis minyak akar wangi super premium untuk pasar internasional"
  },
  {
    "id": 101,
    "jenis": "Petani",
    "name": "Petani Atsiri Maju Jaya",
    "owner": "Bapak Asep",
    "address": "Kp. Cikandang RT 02/05",
    "district": "Cikajang",
    "village": "Cikandang",
    "phone": "082123456789",
    "whatsapp": "082123456789",
    "email": "petaniatsiri.majujaya@email.com",
    "farmSize": "3.5 Ha",
    "crops": ["Sereh Wangi", "Nilam"],
    "products": ["Minyak Sereh", "Minyak Nilam"],
    "rating": 4.6,
    "status": "Aktif",
    "pricePerKg": 18500,
    "farmingExperience": 12,
    "harvestSeason": "April - November",
    "productionCapacity": "8 Ton/Panen",
    "description": "Petani atsiri berpengalaman di daerah Garut, spesialis tanaman sereh wangi dan nilam."
  },
  {
    "id": 102,
    "jenis": "Petani",
    "name": "Kelompok Tani Sereh Wangi",
    "owner": "Bapak Dasep",
    "address": "Kp. Samarang RT 03/01",
    "district": "Samarang",
    "village": "Samarang",
    "phone": "081234567890",
    "whatsapp": "081234567890",
    "farmSize": "5.2 Ha",
    "crops": ["Sereh Wangi", "Akar Wangi"],
    "products": ["Minyak Sereh", "Minyak Akar Wangi"],
    "rating": 4.8,
    "status": "Aktif",
    "pricePerKg": 22000,
    "farmingExperience": 15,
    "harvestSeason": "Maret - Desember",
    "productionCapacity": "12 Ton/Panen",
    "description": "Kelompok tani terbesar di Garut yang fokus pada tanaman penghasil minyak atsiri."
  },
  {
    "id": 103,
    "jenis": "Petani",
    "name": "Sumber Tani Sejahtera",
    "owner": "Ibu Tuti",
    "address": "Kp. Cimaung RT 01/04",
    "district": "Cisewu",
    "village": "Cimaung",
    "phone": "083456789012",
    "whatsapp": "083456789012",
    "email": "sumbertani.sejahtera@email.com",
    "farmSize": "2.8 Ha",
    "crops": ["Nilam", "Cengkeh"],
    "products": ["Minyak Nilam", "Cengkeh Kering"],
    "certification": ["Organik"],
    "rating": 4.4,
    "status": "Aktif",
    "pricePerKg": 28000,
    "farmingExperience": 10,
    "harvestSeason": "Mei - Oktober",
    "productionCapacity": "6 Ton/Panen",
    "description": "Petani wanita sukses di Garut dengan sistem pertanian organik terpadu."
  },
  {
    "id": 104,
    "jenis": "Petani",
    "name": "Petani Nilam Barokah",
    "owner": "Bapak Jajang",
    "address": "Kp. Pameungpeuk RT 05/07",
    "district": "Pameungpeuk",
    "village": "Pameungpeuk",
    "phone": "085678901234",
    "whatsapp": "085678901234",
    "farmSize": "4.0 Ha",
    "crops": ["Nilam", "Pala"],
    "products": ["Minyak Nilam", "Biji Pala"],
    "rating": 4.7,
    "status": "Aktif",
    "pricePerKg": 32000,
    "farmingExperience": 18,
    "harvestSeason": "Juni - Januari",
    "productionCapacity": "10 Ton/Panen",
    "description": "Petani nilam berpengalaman dengan kualitas hasil terbaik di Garut."
  },
  {
    "id": 105,
    "jenis": "Petani",
    "name": "Tani Atsiri Lestari",
    "owner": "Bapak Ujang",
    "address": "Kp. Cikelet RT 02/03",
    "district": "Cikelet",
    "village": "Cikelet",
    "phone": "087890123456",
    "whatsapp": "087890123456",
    "farmSize": "3.2 Ha",
    "crops": ["Sereh Wangi", "Kencur"],
    "products": ["Minyak Sereh", "Rimpang Kencur"],
    "certification": ["Good Agricultural Practices"],
    "rating": 4.9,
    "status": "Aktif",
    "pricePerKg": 19500,
    "farmingExperience": 14,
    "harvestSeason": "Februari - November",
    "productionCapacity": "7 Ton/Panen",
    "description": "Menerapkan praktik pertanian terbaik untuk menghasilkan minyak atsiri berkualitas tinggi."
  }
]